{"type": "FeatureCollection", "features": [{"type": "Feature", "properties": {"name": "Tokyo", "prefecture": "Tokyo", "population": 13929000}, "geometry": {"type": "Point", "coordinates": [139.6917, 35.6895]}}, {"type": "Feature", "properties": {"name": "Osaka", "prefecture": "Osaka", "population": 2691000}, "geometry": {"type": "Point", "coordinates": [135.5022, 34.6937]}}, {"type": "Feature", "properties": {"name": "Nagoya", "prefecture": "Aichi", "population": 2296000}, "geometry": {"type": "Point", "coordinates": [136.9066, 35.1815]}}, {"type": "Feature", "properties": {"name": "Sapporo", "prefecture": "Hokkaido", "population": 1953000}, "geometry": {"type": "Point", "coordinates": [141.3545, 43.0618]}}, {"type": "Feature", "properties": {"name": "Fukuoka", "prefecture": "Fukuoka", "population": 1632000}, "geometry": {"type": "Point", "coordinates": [130.4017, 33.5904]}}]}